,City,Cloudiness,Country,Date,Humidity,Lat,Lng,Max temp,Wind Speed
0,Vaini,0,IN,1552798800,42,15.34,74.49,84.2,3.36
1,Hermanus,68,ZA,1552799799,99,-34.42,19.24,64.99,1.01
2,Saint-Georges,76,CA,1552799843,66,46.12,-70.67,19.99,7.0
3,Hilo,40,US,1552800035,73,19.71,-155.08,73.4,4.7
4,Bredasdorp,88,ZA,1552799799,99,-34.53,20.04,64.99,1.01
5,Barrow,76,AR,1552800367,95,-38.31,-60.23,64.76,7.63
6,Tuktoyaktuk,40,CA,1552798800,77,69.44,-133.03,5.0,19.46
7,Dikson,76,RU,1552800368,92,73.51,80.55,8.96,26.31
8,Sioux Lookout,40,CA,1552798800,85,50.1,-91.92,17.6,4.7
9,Atuona,0,PF,1552800368,100,-9.8,-139.03,81.95,12.66
10,Busselton,0,AU,1552800310,31,-33.64,115.35,82.0,16.8
11,Kruisfontein,68,ZA,1552800368,90,-34.0,24.73,65.48,4.83
12,Komsomolskiy,88,RU,1552800369,83,67.55,63.78,17.15,11.99
13,Rikitea,80,PF,1552800369,100,-23.12,-134.97,77.63,21.83
14,Torbay,90,CA,1552800203,93,47.66,-52.73,43.0,24.16
15,Carnarvon,20,ZA,1552800369,86,-30.97,22.13,59.99,4.72
16,Inhambane,92,MZ,1552800369,84,-23.87,35.38,79.79,7.96
17,Port Alfred,8,ZA,1552800308,97,-33.59,26.89,69.01,1.99
18,Togur,36,RU,1552800369,88,58.36,82.83,25.97,4.05
19,Coahuayana,0,MX,1552800370,68,18.62,-100.35,60.89,2.15
20,Broken Hill,0,AU,1552795200,25,-31.97,141.45,86.0,11.41
21,Buala,0,SB,1552800370,70,-8.15,159.59,88.88,7.07
22,Hobart,20,AU,1552800314,56,-42.88,147.33,70.0,19.46
23,Mao,20,DO,1552800034,88,19.55,-71.08,73.0,6.93
24,Bethel,90,US,1552798560,85,60.79,-161.76,24.8,8.05
25,Taltal,0,CL,1552799776,89,-25.41,-70.49,54.59,2.37
26,Jamestown,0,AU,1552800371,75,-33.21,138.6,76.55,6.73
27,Ribeira Grande,68,PT,1552800372,94,38.52,-28.7,61.97,8.63
28,Lazaro Cardenas,20,MX,1552799708,34,28.39,-105.62,53.6,8.05
29,Bowen,0,AU,1552800326,62,-20.01,148.25,87.01,10.29
30,Puerto Ayora,44,EC,1552797916,90,-0.74,-90.35,75.0,1.99
31,Atasu,56,KZ,1552800372,93,48.68,71.64,24.53,13.0
32,Alofi,88,NU,1552795200,78,-19.06,-169.92,82.4,6.93
33,Tiznit,0,MA,1552800372,72,29.7,-9.73,57.83,0.58
34,Mataura,12,NZ,1552800006,73,-46.19,168.86,64.0,5.17
35,Albany,75,US,1552800063,63,42.65,-73.75,30.99,11.41
36,Kentau,20,KZ,1552800373,71,43.52,68.5,52.34,8.19
37,Shitanjing,68,CN,1552800373,16,39.23,106.34,53.42,3.71
38,Georgetown,0,GY,1552798800,94,6.8,-58.16,75.2,4.7
39,Cape Town,90,ZA,1552800365,93,-33.93,18.42,62.01,11.41
40,Xichang,92,CN,1552800341,40,27.88,102.25,69.01,2.37
41,Sitka,0,US,1552799715,64,37.17,-99.65,42.01,1.01
42,Bluff,8,AU,1552800375,98,-23.58,149.07,78.71,3.49
43,Richards Bay,24,ZA,1552800375,79,-28.77,32.06,76.19,10.54
44,Santa Isabel do Rio Negro,20,BR,1552800375,97,-0.41,-65.02,75.11,2.93
45,Lac du Bonnet,20,CA,1552800342,68,50.25,-96.06,9.23,3.27
46,Tucuman,8,PE,1552800375,86,-17.17,-70.89,54.77,1.36
47,Coracora,64,PE,1552800375,99,-15.02,-73.78,42.8,2.37
48,Laguna,48,MX,1552800375,68,27.52,-110.01,53.87,1.59
49,East London,0,ZA,1552798800,94,-33.02,27.91,71.6,6.93
50,New Norfolk,20,AU,1552800375,56,-42.78,147.06,70.0,19.46
51,Vardo,90,US,1552800125,47,39.62,-77.74,39.2,10.29
52,Ushuaia,75,AR,1552798800,93,-54.81,-68.31,46.4,4.7
53,Butaritari,92,KI,1552800376,100,3.07,172.79,74.39,0.25
54,Caravelas,80,BR,1552800376,100,-17.73,-39.27,82.85,13.67
55,Pingliang,92,CN,1552800167,47,35.54,106.68,45.0,2.48
56,Athboy,20,IE,1552800304,86,53.62,-6.92,36.0,16.11
57,Kerekegyhaza,0,HU,1552800341,86,46.94,19.48,44.01,4.7
58,Dukat,0,RS,1552800205,78,42.44,22.31,37.0,1.7
59,Eureka,40,US,1552800226,93,40.8,-124.16,51.01,3.36
60,Lagos,0,NG,1552800265,92,6.46,3.39,81.05,7.4
61,Omboue,92,GA,1552800377,100,-1.57,9.26,82.49,4.16
62,Upernavik,48,GL,1552800377,100,72.79,-56.15,-11.12,12.88
63,Souillac,90,FR,1552800348,93,45.6,-0.6,51.01,16.11
64,Hof,0,DE,1552800364,85,50.32,11.92,46.99,17.92
65,Portland,90,US,1552799898,53,45.52,-122.67,52.0,9.17
66,Cayenne,75,GF,1552798800,94,4.94,-52.33,73.4,7.96
67,Kachug,80,RU,1552800379,77,53.96,105.89,42.08,3.49
68,Saldanha,12,PT,1552800380,84,41.42,-6.55,32.63,5.17
69,Mobaye,8,CF,1552800380,86,4.33,21.18,75.2,2.48
70,Kochubey,92,RU,1552800380,100,44.39,46.54,43.79,3.38
71,Itarema,12,BR,1552800380,96,-2.92,-39.92,74.12,4.27
72,Saint-Philippe,90,CA,1552800369,62,45.36,-73.48,26.01,9.17
73,Nago,64,IT,1552800364,86,45.88,10.89,48.0,2.24
74,San Patricio,92,PY,1552800380,96,-26.98,-56.83,70.7,4.61
75,Port-Gentil,40,GA,1552798800,94,-0.72,8.78,78.8,4.7
76,Necochea,76,AR,1552799792,96,-38.55,-58.74,66.99,5.99
77,Constitucion,92,MX,1552800381,25,23.99,-104.67,54.41,6.73
78,Punta Arenas,90,CL,1552800197,100,-53.16,-70.91,51.8,12.75
79,Nanortalik,92,GL,1552800381,100,60.14,-45.24,25.79,20.04
80,Provideniya,0,RU,1552800381,100,64.42,-173.23,12.29,10.65
81,Dingle,24,PH,1552800381,59,11.0,122.67,86.18,14.79
82,Mar del Plata,92,AR,1552800382,44,-46.43,-67.52,66.56,11.21
83,Mandurah,0,AU,1552800019,43,-32.55,115.7,91.0,8.05
84,Lebu,5,ET,1552798800,51,8.96,38.73,62.6,5.82
85,Bucerias,90,MX,1552800309,100,20.76,-105.33,73.99,2.15
86,Klaksvik,20,FO,1552798200,80,62.23,-6.59,35.6,2.24
87,Salinopolis,68,BR,1552800382,94,-0.61,-47.36,80.87,11.21
88,Longyearbyen,20,NO,1552798200,49,78.22,15.63,1.4,1.36
89,Khatanga,12,RU,1552800383,73,71.98,102.47,-6.44,4.27
90,Fortuna,0,ES,1552800341,40,38.18,-1.13,55.99,10.29
91,Shimoda,75,JP,1552800311,50,34.7,138.93,59.0,10.29
92,Yellowknife,5,CA,1552799763,72,62.45,-114.38,19.99,10.29
93,Victoria,75,BN,1552798800,58,5.28,115.24,87.8,9.17
94,Havoysund,88,NO,1552798200,74,71.0,24.66,30.2,28.86
95,Arraial do Cabo,92,BR,1552800384,100,-22.97,-42.02,75.83,3.15
96,Nata,20,CY,1552798800,87,34.78,32.57,57.2,4.7
97,Mehamn,88,NO,1552800384,93,71.03,27.85,29.75,10.54
98,Narsaq,92,GL,1552798200,64,60.91,-46.05,33.8,19.46
99,Tasiilaq,92,GL,1552798200,72,65.61,-37.64,15.8,3.36
100,Kapaa,1,US,1552800203,69,22.08,-159.32,73.4,9.42
101,Pochutla,0,MX,1552799809,79,15.74,-96.47,78.01,4.05
102,Kudahuvadhoo,68,MV,1552800385,100,2.67,72.89,80.42,6.4
103,Nabire,32,ID,1552800385,75,-3.36,135.5,79.34,2.26
104,Thompson,90,CA,1552798800,57,55.74,-97.86,19.4,5.82
105,Avarua,92,CK,1552798800,88,-21.21,-159.78,77.0,24.16
106,Clyde River,1,CA,1552798800,74,70.47,-68.59,-23.81,13.87
107,Yar-Sale,64,RU,1552800386,92,66.83,70.83,3.56,6.06
108,Steamboat Springs,1,US,1552799700,67,40.48,-106.83,21.2,2.15
109,Miraflores,80,CO,1552800387,96,5.2,-73.14,52.43,1.14
110,Derzhavinsk,24,KZ,1552800387,97,51.1,66.31,23.99,12.21
111,Lincoln,0,GB,1552800366,86,53.23,-0.54,39.2,16.11
112,Todos Santos,75,MX,1552800333,63,23.45,-110.23,68.0,1.81
113,Ahipara,32,NZ,1552800388,67,-35.17,173.16,74.48,6.17
114,Codrington,92,AU,1552800170,65,-28.95,153.24,80.6,12.75
115,Changji,92,CN,1552800388,54,32.07,116.17,66.56,8.97
116,Calvia,20,ES,1552799951,100,39.57,2.51,51.01,2.24
117,Effium,24,NG,1552800389,92,6.63,8.06,75.02,5.84
118,Srednekolymsk,76,RU,1552800389,60,67.46,153.71,-7.16,3.27
119,San Ramon,48,NI,1552800129,87,12.92,-85.84,66.99,5.01
120,Sao Jose da Coroa Grande,32,BR,1552800389,96,-8.9,-35.15,76.82,1.7
121,Saint-Augustin,90,FR,1552800342,87,44.83,-0.61,53.6,14.99
122,Mingshui,92,CN,1552800389,100,22.81,109.89,65.93,2.82
123,Evensk,24,RU,1552800390,100,61.92,159.24,6.17,2.15
124,Gat,0,SN,1552798800,88,14.69,-16.54,66.2,11.41
125,Benguela,92,AO,1552800390,100,-12.58,13.4,79.52,2.04
126,Vallenar,0,CL,1552800390,70,-28.58,-70.76,53.6,3.71
127,Maniitsoq,44,GL,1552800390,84,65.42,-52.9,6.62,6.96
128,Spring Valley,1,US,1552800381,40,41.11,-74.04,37.99,13.87
129,Ostersund,88,SE,1552800105,92,63.18,14.64,27.0,6.93
130,Vero Beach,1,US,1552800336,88,27.64,-80.4,68.0,4.7
131,Florence,1,US,1552800353,42,34.8,-87.68,46.4,4.7
132,Geraldton,90,CA,1552798800,78,49.72,-86.95,15.8,2.24
133,Coihaique,0,CL,1552798800,54,-45.58,-72.07,57.2,27.51
134,Sinnamary,48,GF,1552800392,98,5.38,-52.96,78.17,11.43
135,Zhaotong,64,CN,1552800392,73,27.34,103.71,49.37,3.27
136,Pevek,20,RU,1552800392,88,69.7,170.27,-14.99,15.9
137,Port Elizabeth,1,US,1552800371,40,39.31,-74.98,39.99,10.29
138,Moindou,75,NC,1552798800,83,-21.69,165.68,84.2,8.05
139,Deputatskiy,56,RU,1552800392,74,69.3,139.9,-4.37,3.6
140,Ovre Ardal,92,NO,1552800392,81,61.32,7.8,20.03,8.75
141,Bourail,88,NC,1552800393,85,-21.57,165.5,78.17,5.06
142,Khanpur,0,PK,1552800393,79,28.65,70.66,75.29,5.84
143,Catio,0,GW,1552800393,58,11.28,-15.25,67.1,4.5
144,Santa Rosa,0,AR,1552800395,91,-36.62,-64.29,58.19,3.15
145,Mitu,80,IR,1552800395,99,36.2,46.09,37.67,2.93
146,Nacogdoches,1,US,1552800169,81,31.6,-94.66,53.6,3.83
147,Bambous Virieux,40,MU,1552800248,83,-20.34,57.76,82.4,4.7
148,Mahebourg,40,MU,1552800248,83,-20.41,57.7,82.4,4.7
149,Selma,1,US,1552800324,66,36.57,-119.61,60.8,2.37
150,Rio Claro,76,BR,1552800395,94,-22.41,-47.56,67.19,2.93
151,Ladario,80,PT,1552800302,89,40.7,-7.74,51.01,1.99
152,Lorengau,76,PG,1552800396,100,-2.02,147.27,81.23,8.63
153,Coquimbo,0,CL,1552798800,87,-29.95,-71.34,55.4,2.24
154,Kindu,8,CD,1552800396,88,-2.95,25.92,74.21,2.82
155,Biberach,0,DE,1552800379,48,48.29,10.22,46.4,13.87
156,Kodiak,1,US,1552800379,74,39.95,-94.76,41.0,6.93
157,Sobolevo,92,RU,1552800396,100,54.43,31.9,35.42,5.61
158,Ushumun,12,RU,1552800396,47,52.78,126.54,43.25,6.51
159,Abu Samrah,0,SY,1552800397,97,35.3,37.18,50.09,12.33
160,Pipri,32,IN,1552800397,43,24.21,83.02,82.85,3.94
161,Kendari,24,ID,1552800397,100,-3.99,122.52,79.88,2.71
162,Kununurra,0,AU,1552798800,52,-15.77,128.74,93.2,5.82
163,Castro,32,CL,1552798800,87,-42.48,-73.76,51.8,6.93
164,Tiksi,8,RU,1552800398,41,71.64,128.87,-13.46,4.27
165,Corinto,68,BR,1552800398,96,-18.36,-44.46,68.27,1.81
166,Cap Malheureux,40,MU,1552800248,83,-19.98,57.61,82.4,4.7
167,Paamiut,92,GL,1552800398,90,61.99,-49.67,32.09,24.29
168,Anchorage,90,US,1552800372,60,61.22,-149.89,44.6,12.55
169,Grebenskaya,90,RU,1552798800,81,43.53,46.37,44.6,2.24
170,Nyurba,48,RU,1552800399,50,63.29,118.35,14.18,8.19
171,Kohima,0,IN,1552797000,54,25.66,94.1,78.8,2.59
172,Severo-Kurilsk,68,RU,1552800399,100,50.68,156.12,28.31,3.94
173,Chokurdakh,68,RU,1552800399,74,70.62,147.9,-6.62,4.61
174,Berdigestyakh,0,RU,1552800399,52,62.1,126.7,12.92,6.17
175,Cabo San Lucas,75,MX,1552800031,63,22.89,-109.91,68.0,3.71
176,Abha,75,SA,1552795200,82,18.22,42.5,59.0,10.29
177,Deniliquin,0,AU,1552800400,72,-35.53,144.96,79.07,7.74
178,Bandrele,0,YT,1552798800,83,-12.91,45.19,84.2,3.36
179,Egvekinot,76,RU,1552800210,74,66.32,-179.17,-1.22,2.93
180,Baruun-Urt,0,MN,1552800400,23,46.68,113.28,54.5,18.37
181,Comodoro Rivadavia,0,AR,1552798800,56,-45.87,-67.48,69.8,8.05
182,Ahuimanu,1,US,1552800390,71,21.44,-157.84,77.0,13.87
183,Ternate,40,PH,1552800215,55,14.29,120.72,90.0,13.87
184,Yerofey Pavlovich,8,RU,1552800401,42,53.97,121.97,41.99,6.96
185,Sakaiminato,75,JP,1552798800,43,35.55,133.23,51.8,14.99
186,Rio Gallegos,0,AR,1552798800,87,-51.62,-69.22,55.4,11.41
187,Pangai,88,TO,1552800401,100,-19.8,-174.35,79.52,9.08
188,Saint George,0,GR,1552800203,70,39.45,22.34,51.01,5.82
189,Hithadhoo,32,MV,1552800401,100,-0.6,73.08,81.68,1.03
190,Avera,1,US,1552800337,93,33.19,-82.53,46.4,2.37
191,Numaligarh,0,IN,1552800402,62,26.63,93.73,77.0,3.38
192,Capesterre-Belle-Eau,0,GP,1552798800,94,16.04,-61.57,68.0,11.99
193,Pentecoste,32,BR,1552799289,95,-3.8,-39.27,73.99,3.38
194,Tingo Maria,24,PE,1552800402,95,-9.29,-76.01,61.97,1.7
195,Povenets,80,RU,1552800402,87,62.85,34.83,27.59,11.54
196,Santa Isabel,80,CO,1552800403,94,4.71,-75.1,64.58,2.26
197,Phonhong,40,LA,1552798800,49,18.5,102.42,91.4,4.7
198,Srandakan,68,ID,1552800403,88,-7.94,110.25,81.23,6.96
199,Lagoa,0,PT,1552800133,62,37.14,-8.45,55.4,3.36
200,Broome,24,GB,1552800380,86,52.47,1.45,43.0,13.87
201,Lodwar,0,KE,1552800404,44,3.12,35.6,83.57,2.71
202,Sistranda,40,NO,1552800120,100,63.73,8.83,32.0,17.22
203,Sao Filipe,0,CV,1552800404,98,14.9,-24.5,70.43,13.22
204,Faya,75,SA,1552795200,82,18.39,42.45,59.0,10.29
205,Elat,76,CM,1552800404,92,2.91,11.16,69.44,2.26
206,Grindavik,75,IS,1552799796,100,63.84,-22.43,36.0,4.7
207,Farafangana,12,MG,1552800405,98,-22.82,47.83,79.7,2.59
208,Angoche,44,MZ,1552800405,100,-16.23,39.91,81.32,9.98
209,Luanda,75,AO,1552795200,83,-8.83,13.24,78.8,9.17
210,Hasaki,75,JP,1552799977,100,35.73,140.83,57.0,5.82
211,Touros,20,BR,1552798800,94,-5.2,-35.46,77.0,3.36
212,Goure,20,NE,1552800405,20,13.98,10.27,73.94,13.78
213,Mitsamiouli,20,KM,1552798800,62,-11.38,43.28,86.0,2.24
214,Pimentel,92,BR,1552800406,95,-3.7,-45.5,75.29,2.59
215,Sao Gabriel da Cachoeira,92,BR,1552800406,96,-0.13,-67.09,73.22,2.15
216,Rocha,80,UY,1552800406,93,-34.48,-54.34,68.09,9.64
217,Faanui,80,PF,1552800406,99,-16.48,-151.75,84.29,9.08
218,Saint-Francois,0,FR,1552799747,93,46.42,3.91,35.6,1.12
219,Daru,8,SL,1552800407,93,7.99,-10.85,75.47,4.61
220,Chuy,92,UY,1552800407,94,-33.69,-53.46,72.23,18.7
221,Ponta do Sol,64,BR,1552800407,93,-20.63,-46.0,66.83,3.38
222,Sibolga,12,ID,1552800407,62,1.74,98.78,85.1,2.71
223,Isangel,75,VU,1552795200,66,-19.55,169.27,87.8,13.87
224,Nikolskoye,90,RU,1552800335,86,59.7,30.79,34.0,8.95
225,Airai,92,TL,1552800408,92,-8.93,125.41,72.5,1.7
226,Lavrentiya,80,RU,1552800408,92,65.58,-170.99,15.89,24.85
227,Linjiang,0,CN,1552800408,46,41.81,126.91,39.83,6.4
228,Hobyo,44,SO,1552800408,74,5.35,48.53,83.03,14.0
229,Saskylakh,0,RU,1552800408,73,71.97,114.09,-6.62,6.96
230,Kurilsk,92,RU,1552800408,93,45.23,147.88,30.29,3.38
231,Zhezkazgan,90,KZ,1552798800,73,47.8,67.71,19.4,22.37
232,Kaitangata,24,NZ,1552797248,79,-46.28,169.85,62.01,5.99
233,Placido de Castro,20,BR,1552800409,95,-10.34,-67.19,75.65,2.15
234,Meulaboh,0,ID,1552800409,100,4.14,96.13,85.01,3.15
235,Waipawa,20,NZ,1552799356,84,-39.94,176.59,61.0,5.28
236,Berlevag,32,NO,1552800409,100,70.86,29.09,27.05,13.44
237,Saint-Pierre,75,FR,1552800125,81,48.95,4.24,48.2,20.8
238,Noyabrsk,0,RU,1552800410,87,63.2,75.45,10.22,8.3
239,Iracoubo,0,GF,1552800410,79,5.48,-53.21,75.38,5.61
240,Vila Velha,75,BR,1552799289,94,-3.71,-38.6,75.2,2.24
241,Vila,75,IT,1552800364,93,45.18,8.4,52.0,4.7
242,Guozhen,92,CN,1552800411,98,29.3,113.14,55.76,2.93
243,Charlottetown,75,CA,1552800336,54,46.23,-63.13,28.99,17.22
244,Laukaa,88,FI,1552800342,93,62.42,25.95,32.0,6.93
245,Syamzha,76,RU,1552800411,94,60.02,41.06,28.04,9.19
246,Hamilton,20,CA,1552800378,73,43.26,-79.87,28.99,6.93
247,La Carlota,32,PH,1552800412,69,10.43,122.92,83.57,7.4
248,Verkh-Usugli,0,RU,1552800412,47,52.7,115.17,43.7,9.19
249,Mattawa,90,CA,1552800017,72,46.32,-78.7,18.0,17.22
250,Andra,0,RU,1552800412,74,62.52,65.89,14.09,3.71
251,Virginia Beach,20,US,1552800304,86,36.85,-75.98,48.0,3.36
252,Ewo,56,CG,1552800412,92,-0.88,14.81,73.4,3.27
253,Mayo,75,CA,1552798800,64,63.59,-135.9,33.8,3.36
254,Beloha,8,MG,1552800413,66,-25.17,45.06,81.32,11.1
255,Natal,0,BR,1552798800,88,-5.81,-35.21,77.0,2.24
256,Balaguer,0,ES,1552800244,80,41.79,0.81,46.0,1.12
257,Elbistan,20,TR,1552800413,76,38.2,37.19,34.52,11.65
258,Pangnirtung,36,CA,1552800413,46,66.15,-65.72,-16.16,4.38
259,Lakes Entrance,0,AU,1552800303,72,-37.88,147.99,82.0,10.0
260,Auki,0,NG,1552800414,26,12.18,6.51,71.69,11.43
261,Alice Springs,48,AU,1552798800,10,-23.7,133.88,95.0,18.34
262,Morganton,1,US,1552800354,40,35.75,-81.69,44.01,4.16
263,Molchanovo,48,RU,1552800414,97,57.58,83.76,25.34,4.16
264,Puerto Escondido,0,MX,1552800414,99,15.86,-97.07,82.76,11.65
265,Tete,92,MZ,1552800367,100,-16.16,33.59,74.39,4.16
266,Jingdezhen,100,CN,1552800414,72,29.29,117.2,62.42,4.16
267,Fort-Shevchenko,68,KZ,1552800415,82,44.51,50.26,46.85,3.15
268,Kaeo,8,NZ,1552799284,81,-35.1,173.78,71.01,7.0
269,Sola,75,NO,1552800305,86,58.89,5.65,41.0,18.34
270,Tondano,40,ID,1552798800,66,1.3,124.91,86.0,10.29
271,Ponsacco,75,IT,1552800402,93,43.62,10.63,55.99,6.93
272,Rio Grande,92,BR,1552800415,94,-32.03,-52.1,74.3,19.37
273,Kahramanmaras,40,TR,1552800125,93,37.58,36.93,46.0,4.7
274,Aklavik,90,CA,1552798800,49,68.22,-135.01,26.6,9.17
275,Lompoc,1,US,1552800368,76,34.64,-120.46,61.0,6.51
276,Haines Junction,68,CA,1552800416,82,60.75,-137.51,29.39,5.39
277,Dunedin,8,NZ,1552800225,81,-45.87,170.5,62.01,8.01
278,Kayerkan,48,RU,1552800416,69,69.35,87.76,-1.58,4.05
279,Qaanaaq,0,GL,1552800416,79,77.48,-69.36,-26.78,7.96
280,Ilebo,80,CD,1552800416,96,-4.33,20.59,74.39,2.82
281,Banska Bystrica,90,SK,1552800306,100,48.74,19.15,41.0,2.24
282,Ngunguru,0,NZ,1552799284,81,-35.62,174.5,71.01,7.0
283,La Ronge,5,CA,1552798800,54,55.1,-105.3,30.2,6.93
284,Payson,1,US,1552800244,64,40.04,-111.73,39.2,1.81
285,Kahului,90,US,1552800167,64,20.89,-156.47,75.2,6.93
286,Port Lincoln,0,AU,1552800417,75,-34.72,135.86,74.3,11.54
287,Magadan,44,RU,1552800417,100,59.56,150.8,15.62,18.7
288,Lekoni,92,GA,1552800417,97,-1.58,14.26,71.06,4.38
289,Mnogovershinnyy,68,RU,1552800418,70,53.94,139.92,27.95,0.81
290,Chiredzi,92,ZW,1552800418,98,-21.05,31.67,69.08,8.97
291,Henties Bay,88,NA,1552798926,94,-22.12,14.28,60.01,4.0
292,Yerbogachen,24,RU,1552800418,61,61.28,108.01,25.25,6.73
293,Mezen,88,RU,1552800418,79,65.85,44.24,26.69,7.18
294,Kenai,75,US,1552800368,69,60.55,-151.26,39.99,5.82
295,Deming,1,US,1552800011,93,32.27,-107.76,35.6,5.82
296,Poum,0,MK,1552798800,86,41.28,20.71,28.4,2.24
297,Cururupu,80,BR,1552800419,99,-1.82,-44.87,75.02,3.15
298,Sao Joao da Barra,88,BR,1552800419,100,-21.64,-41.05,76.91,7.63
299,Vila do Maio,0,CV,1552798800,77,15.13,-23.22,68.0,13.87
300,Zhigansk,0,RU,1552800419,57,66.77,123.37,2.3,6.62
301,Elko,1,US,1552800190,59,40.83,-115.76,34.0,2.71
302,Prince Rupert,90,CA,1552798800,71,54.32,-130.32,50.0,10.29
303,Vredendal,92,ZA,1552800419,89,-31.68,18.49,59.27,3.94
304,Horsham,0,AU,1552800420,80,-36.71,142.2,78.17,4.38
305,Tazovskiy,20,RU,1552800420,67,67.47,78.7,-4.55,3.38
306,Quatre Cocos,40,MU,1552800248,83,-20.21,57.76,82.4,4.7
307,Santa Clarita,1,US,1552800311,22,34.39,-118.54,68.0,3.36
308,Chantada,75,ES,1552800244,100,42.61,-7.77,48.99,5.82
309,Tessalit,0,ML,1552800420,35,20.2,1.01,57.29,3.71
310,Bilibino,0,RU,1552800420,78,68.06,166.44,-8.87,2.37
311,Pisco,0,PE,1552798800,83,-13.71,-76.2,69.8,9.17
312,Zmeinogorsk,64,RU,1552800421,92,51.15,82.2,21.11,6.06
313,Giehun,0,SL,1552800421,74,8.17,-11.09,77.0,3.15
314,Zeya,36,RU,1552800421,55,53.74,127.27,33.8,4.72
315,Muros,75,ES,1552800405,100,42.77,-9.06,53.01,5.82
316,Oriximina,32,BR,1552800421,100,-1.77,-55.87,73.85,4.27
317,Nome,40,US,1552800385,87,30.04,-94.42,55.99,4.5
318,Kalmunai,68,LK,1552800422,87,7.42,81.82,83.93,7.4
319,Pacific Grove,1,US,1552800410,61,36.62,-121.92,57.99,6.93
320,Patiya,0,BD,1552798800,48,22.3,91.98,87.8,5.82
321,Brazzaville,20,CD,1552798800,94,-4.27,15.27,73.4,2.24
322,Carutapera,92,BR,1552800422,94,-1.2,-46.02,78.35,4.16
323,Hofn,0,IS,1552800422,100,64.25,-15.21,34.07,5.06
324,Yabelo,0,ET,1552800422,32,4.89,38.09,81.23,9.42
325,Nanakuli,1,US,1552800390,83,21.39,-158.15,77.0,10.29
326,Azare,0,NG,1552800423,24,11.67,10.19,70.52,10.65
327,Norman Wells,75,CA,1552798800,47,65.28,-126.83,37.4,12.75
328,Balabac,0,PH,1552800423,95,7.99,117.06,83.66,12.44
329,Uruguaiana,90,BR,1552798800,94,-29.77,-57.08,73.4,5.82
330,Esperance,20,TT,1552800306,83,10.24,-61.45,75.2,6.06
331,Bandarbeyla,68,SO,1552800424,100,9.49,50.81,78.17,6.17
332,Kavaratti,0,IN,1552800424,100,10.57,72.64,83.12,5.5
333,Palmer,0,AU,1552800417,57,-34.85,139.16,84.99,18.34
334,Gold Coast,90,AU,1552800407,83,-28.0,153.41,82.0,6.93
335,Shakhtinsk,0,KZ,1552798800,92,49.71,72.59,14.0,4.47
336,Flinders,90,AU,1552800334,100,-34.58,150.85,68.0,13.87
337,Makakilo City,1,US,1552800195,69,21.35,-158.09,77.0,17.22
338,Imeni Babushkina,92,RU,1552800425,93,59.76,43.13,28.49,9.64
339,Kandrian,68,PG,1552800425,82,-6.21,149.55,80.87,6.85
340,Longhua,0,CN,1552800425,90,29.21,106.21,62.24,3.15
341,Linxia,56,CN,1552800425,56,35.6,103.21,39.56,3.6
342,Methoni,0,GR,1552800332,87,36.82,21.7,51.01,16.02
343,De Aar,12,ZA,1552800425,96,-30.65,24.01,59.18,4.38
344,Guerrero Negro,48,MX,1552800426,91,27.97,-114.04,52.07,6.4
345,Kieta,76,PG,1552800426,99,-6.22,155.63,81.5,2.26
346,Orange,88,AU,1552800347,89,-33.28,149.1,73.0,1.99
347,Mogadishu,75,SO,1552798800,70,2.04,45.34,84.2,10.29
348,Yeppoon,75,AU,1552798800,52,-23.13,150.74,87.8,6.93
349,Boa Vista,0,BR,1552798800,61,2.82,-60.67,82.4,6.93
350,Yarim,0,YE,1552800427,57,14.3,44.38,66.47,2.48
351,Abu Zabad,0,SD,1552800427,16,12.35,29.25,68.99,17.25
352,Westport,0,IE,1552799894,84,53.8,-9.52,39.99,5.99
353,Sesheke,0,NA,1552800427,66,-17.47,24.29,72.86,7.4
354,Sussex,40,CA,1552799928,49,45.72,-65.51,28.0,16.11
355,Salta,90,AR,1552798800,93,-24.79,-65.41,64.4,2.26
356,Novobirilyussy,32,RU,1552800428,79,56.95,90.69,25.25,7.52
357,Naze,56,NG,1552800428,93,5.43,7.07,75.02,3.71
358,San Cristobal,75,EC,1552799731,93,-0.39,-78.55,57.2,6.93
359,Kavieng,12,PG,1552800429,97,-2.57,150.8,86.0,8.63
360,Takoradi,12,GH,1552800429,100,4.89,-1.75,78.08,3.94
361,Luderitz,0,NA,1552800429,92,-26.65,15.16,59.99,10.09
362,Vostok,80,RU,1552800429,52,46.45,135.83,32.0,6.29
363,Leningradskiy,76,RU,1552800429,75,69.38,178.42,-7.16,21.83
364,Talnakh,56,RU,1552800429,77,69.49,88.39,-0.77,4.83
365,Cotonou,20,BJ,1552798800,94,6.37,2.43,77.0,5.82
366,Seymchan,36,RU,1552800430,64,62.93,152.39,-4.64,1.36
367,Ramhormoz,40,IR,1552798800,72,31.28,49.6,68.0,9.17
368,Buraydah,20,SA,1552795200,58,26.33,43.97,55.4,6.93
369,Saint-Raymond,75,CA,1552800325,72,46.89,-71.84,21.99,9.17
370,Nadym,56,RU,1552800430,90,65.53,72.51,1.67,4.61
371,Ambilobe,20,MG,1552800430,100,-13.19,49.05,78.53,4.05
372,Mahina,0,ML,1552800431,41,13.76,-10.85,67.73,6.62
373,Iqaluit,40,CA,1552798800,59,63.75,-68.52,-0.41,11.41
374,Kibala,0,TD,1552798800,23,9.11,18.35,82.4,6.17
375,Am Timan,8,TD,1552800431,22,11.04,20.28,73.22,12.44
376,Harrisburg,1,US,1552800303,40,40.27,-76.89,35.6,5.82
377,Antalaha,8,MG,1552800431,97,-14.9,50.28,80.15,6.06
378,Maceio,0,BR,1552798800,88,-9.67,-35.74,75.2,3.36
379,Athabasca,24,CA,1552800279,69,54.72,-113.29,21.47,8.08
380,Raudeberg,88,NO,1552800301,52,61.99,5.14,41.0,9.17
381,Cidreira,92,BR,1552800432,80,-30.17,-50.22,73.4,13.67
382,Honiara,56,SB,1552800432,77,-9.43,159.96,83.84,2.82
383,Harper,75,US,1552800377,46,30.3,-99.24,51.01,5.5
384,Heinola,90,FI,1552800366,95,61.2,26.03,32.0,9.17
385,San Rafael,12,AR,1552800191,95,-34.61,-68.33,50.54,2.93
386,Lahij,68,YE,1552800433,77,13.06,44.88,76.01,4.38
387,Barguzin,20,RU,1552800433,55,53.62,109.63,41.9,4.61
388,Fukue,75,JP,1552800367,81,35.03,136.69,52.0,10.29
389,Iquitos,75,PE,1552798800,94,-3.75,-73.25,75.2,2.24
390,Indian Head,0,CA,1552799412,88,50.53,-103.67,19.99,7.0
391,Rawson,0,AR,1552800434,94,-43.3,-65.11,61.07,14.9
392,Fairbanks,90,US,1552800159,55,64.84,-147.72,41.0,6.93
393,Ambulu,44,ID,1552800434,100,-8.35,113.61,80.87,10.42
394,Rindal,48,NO,1552800435,92,63.05,9.21,11.66,4.83
395,Vila Franca do Campo,40,PT,1552800395,87,37.72,-25.43,57.2,3.36
396,Margate,20,AU,1552800434,56,-43.03,147.26,70.0,19.46
397,Vanimo,12,PG,1552800435,98,-2.67,141.3,83.21,14.79
398,Port Blair,20,IN,1552795200,62,11.67,92.75,87.8,6.93
399,Lala,36,PH,1552800435,56,7.97,123.75,87.53,6.4
400,San Quintin,36,PH,1552800436,85,17.54,120.52,79.25,3.94
401,Almaznyy,75,RU,1552798800,93,48.03,40.04,37.4,8.95
402,Paramonga,64,PE,1552800436,100,-10.68,-77.82,71.33,9.53
403,Port Hawkesbury,20,CA,1552800355,64,45.62,-61.36,35.01,12.75
404,Boca do Acre,24,BR,1552800436,93,-8.76,-67.39,76.01,2.15
405,Marawi,88,PH,1552799725,82,8.0,124.29,82.0,7.0
406,Gorlitz,20,CA,1552798800,79,51.46,-102.45,24.8,9.17
407,Barcelos,75,PT,1552800424,81,41.53,-8.62,51.8,4.7
408,Carmen,92,PH,1552800197,70,7.2,124.8,81.77,9.08
409,Gadwal,0,IN,1552800437,28,16.23,77.79,94.1,10.54
410,Tilichiki,8,RU,1552800437,69,60.47,166.1,1.13,3.83
411,Seoul,0,KR,1552798800,29,37.57,126.98,53.6,5.82
412,Ambon,20,FR,1552800426,93,47.55,-2.56,46.0,8.05
413,Dakar,0,SN,1552798800,88,14.69,-17.45,66.2,11.41
414,Yamaranguila,32,HN,1552800438,95,14.28,-88.24,61.43,2.15
415,Tulle,0,FR,1552800311,80,45.27,1.77,44.01,6.93
416,San Buenaventura,56,MX,1552800304,29,27.06,-101.55,53.01,5.99
417,San Jeronimo,8,PE,1552800438,100,-13.65,-73.37,37.13,1.7
418,Goderich,0,CA,1552800212,79,43.74,-81.71,27.0,15.01
419,Sovetskiy,92,RU,1552800439,97,56.76,48.47,27.59,10.2
420,Sydney Mines,5,CA,1552800367,82,46.24,-60.22,35.01,6.93
421,Camacha,40,PT,1552797000,72,33.08,-16.33,60.8,9.17
422,Wattegama,12,LK,1552800439,79,7.35,80.68,85.01,3.15
423,Pavagada,0,IN,1552800439,24,14.1,77.28,92.57,10.2
424,Bonavista,68,CA,1552799713,85,48.65,-53.11,39.99,18.7
425,Uttaradit,0,TH,1552799924,52,17.63,100.1,98.01,4.7
426,Port Hardy,40,CA,1552798800,75,50.7,-127.42,44.6,2.24
427,Bathsheba,20,BB,1552798800,74,13.22,-59.52,78.8,17.22
428,Karatau,88,KZ,1552800440,54,43.18,70.46,60.53,13.0
429,Mandalgovi,0,MN,1552800440,66,45.76,106.27,48.29,12.21
430,Kaputa,24,ZM,1552800440,88,-8.47,29.66,71.33,3.49
431,Paso de Patria,75,AR,1552798800,94,-27.25,-58.55,73.4,4.7
432,Rey Bouba,0,CM,1552800440,63,8.67,14.18,68.0,1.36
433,Araouane,0,ML,1552800440,28,18.9,-3.53,56.93,3.6
434,Dire,5,ET,1552798800,51,9.18,38.92,62.6,5.82
435,Kapuskasing,90,CA,1552795200,85,49.42,-82.43,14.0,10.29
436,Svetlogorsk,40,RU,1552798800,92,53.14,59.15,15.8,2.24
437,Saint Anthony,1,US,1552800335,73,43.97,-111.68,30.0,5.82
438,Krasnyy Yar,92,RU,1552800441,97,50.7,44.73,32.81,9.98
439,Gimli,8,CA,1552800005,91,50.63,-96.99,12.0,1.01
440,Show Low,1,US,1552800031,78,34.25,-110.03,43.0,8.05
441,Brae,44,GB,1552798200,75,60.4,-1.35,41.0,21.92
442,Qaqortoq,92,GL,1552798200,64,60.72,-46.03,33.8,19.46
443,Zaozerne,76,UA,1552800442,95,51.37,23.94,36.32,10.09
444,Muli,0,IN,1552800442,20,22.62,71.45,88.97,9.64
445,Noumea,75,NC,1552798800,83,-22.28,166.46,84.2,8.05
446,Dombarovskiy,44,RU,1552800442,91,50.76,59.54,22.91,11.77
447,Conakry,0,GN,1552800442,100,9.52,-13.7,78.08,5.06
448,Lesozavodsk,68,RU,1552800442,68,45.47,133.42,42.89,13.56
449,Alta Floresta,0,BR,1552800443,94,-9.87,-56.08,74.3,1.92
450,Vokhma,92,RU,1552800443,88,58.93,46.76,27.41,6.4
451,Tatarsk,56,RU,1552800443,96,55.22,75.96,23.9,12.44
452,Merauke,92,ID,1552800443,100,-8.49,140.4,74.57,15.01
453,Zyryanovsk,0,KZ,1552800311,64,49.74,84.27,34.25,2.93
454,Zyryanka,20,RU,1552800443,51,65.73,150.89,-3.83,3.04
455,Taber,1,CA,1552799056,92,49.79,-112.14,30.0,5.82
456,Belaya Gora,20,RU,1552800443,66,68.54,146.19,-8.96,2.04
457,Mishan,64,CN,1552800444,45,45.55,131.88,44.51,11.77
458,De-Kastri,44,RU,1552800444,81,51.48,140.77,33.44,6.06
459,Matara,8,PE,1552800444,100,-13.74,-72.9,37.13,1.7
460,Cabedelo,20,BR,1552798800,94,-6.97,-34.84,77.0,2.24
461,Talcahuano,75,CL,1552798800,93,-36.72,-73.12,53.6,3.36
462,Khandbari,8,NP,1552800444,65,27.38,87.21,39.65,0.36
463,Bataipora,0,BR,1552800331,93,-22.3,-53.27,71.42,9.19
464,Mweka,92,CD,1552800445,94,-4.85,21.56,74.21,3.38
465,Adrar,0,DZ,1552798800,29,27.87,-0.29,51.8,12.75
466,Asyut,0,EG,1552795200,81,27.18,31.19,48.2,4.7
467,Yulara,75,AU,1552798800,18,-25.24,130.99,98.6,8.05
468,Cockburn Town,0,TC,1552800445,100,21.46,-71.14,76.55,15.35
469,Leshukonskoye,80,RU,1552800445,82,64.9,45.76,25.61,5.28
470,Orvault,75,FR,1552800426,87,47.27,-1.62,46.4,8.05
471,Ixtapa,90,MX,1552800309,100,20.71,-105.21,73.99,2.04
472,Katsuura,40,JP,1552800072,76,33.93,134.5,51.01,6.93
473,Oranjestad,20,AW,1552795200,78,12.52,-70.03,78.8,19.46
474,Shakawe,0,BW,1552800446,58,-18.36,21.84,70.88,7.29
475,Atar,0,MR,1552800446,41,20.52,-13.05,55.76,6.06
476,Gigmoto,88,PH,1552800446,94,13.78,124.39,80.87,14.0
477,Shache,0,CN,1552800446,32,38.42,77.24,58.64,5.17
478,Ikere,24,NG,1552800446,90,7.49,5.23,70.52,2.59
479,Laurel,90,US,1552800408,59,45.67,-108.77,37.4,3.6
480,Smithers,1,CA,1552798800,86,54.78,-127.17,33.8,1.92
481,Langres,0,FR,1552799723,61,47.87,5.33,48.2,11.41
482,Tsiroanomandidy,0,MG,1552800447,93,-18.77,46.05,74.03,4.16
483,Bhainsdehi,0,IN,1552800447,42,21.65,77.63,84.92,8.19
484,Sisimiut,32,GL,1552800246,50,66.94,-53.67,-18.41,1.36
485,Ilulissat,24,GL,1552798200,53,69.22,-51.1,-2.21,6.93
486,Puerto Carreno,88,CO,1552800448,89,6.19,-67.49,70.43,3.6
487,Perth,0,GB,1552800426,86,56.4,-3.43,36.0,14.99
488,Ketchikan,90,US,1552798560,93,55.34,-131.65,48.2,12.75
489,Bahia Honda,0,CU,1552800448,76,22.9,-83.16,73.94,6.17
490,Petatlan,0,MX,1552800163,95,17.52,-101.27,76.64,6.17
491,Quelimane,36,MZ,1552800204,92,-17.88,36.89,83.03,8.19
492,Fort Nelson,75,CA,1552798800,68,58.81,-122.69,30.2,5.82
493,Sao Bartolomeu de Messines,0,PT,1552800430,62,37.26,-8.29,55.4,3.36
494,Fare,68,PF,1552800449,100,-16.7,-151.02,82.31,4.5
495,Lata,88,IN,1552800449,64,30.78,78.62,52.97,1.7
496,Igrim,20,RU,1552800449,75,63.19,64.42,18.68,3.6
497,Namibe,0,AO,1552800449,100,-15.19,12.15,78.08,2.93
498,Nikolayevsk-na-amure,88,RU,1552800450,72,53.14,140.72,31.37,2.59
499,Xai-Xai,12,MZ,1552800450,92,-25.04,33.64,79.07,4.94
500,Sept-Iles,75,CA,1552799793,66,50.2,-66.38,17.01,20.8
501,Dahanu,0,IN,1552800450,72,19.97,72.73,83.12,6.85
502,Yaan,0,NG,1552800450,91,7.38,8.57,75.38,9.98
503,Manado,40,ID,1552798800,66,1.49,124.85,86.0,10.29
504,Nelspruit,0,ZA,1552799838,88,-25.48,30.98,69.01,3.36
505,Tirlyanskiy,56,RU,1552800450,85,54.22,58.58,21.38,4.05
506,Ingleside,90,CA,1552800410,58,45.0,-74.99,24.8,11.41
507,Maebaru,20,JP,1552800439,47,33.55,130.2,61.0,13.87
508,Orlik,76,RU,1552800451,69,52.51,99.83,30.29,3.27
509,Nicoya,0,CR,1552798800,57,10.15,-85.45,80.6,24.16
510,Pekalongan,32,ID,1552800451,100,-6.89,109.67,81.77,7.18
511,Alghero,40,IT,1552800426,93,40.56,8.32,44.6,3.36
512,Gubkinskiy,0,RU,1552800452,93,64.43,76.5,3.11,5.5
513,Khuzdar,0,PK,1552800452,68,27.8,66.62,61.7,3.27
514,Wiltz,76,LU,1552800436,93,49.97,5.93,46.99,6.93
515,Trairi,88,BR,1552800452,100,-3.28,-39.27,80.87,5.73
516,Lasa,20,CY,1552798800,87,34.92,32.53,57.2,4.7
517,Cherskiy,8,RU,1552800452,50,68.75,161.3,-17.42,2.59
518,Gayny,64,RU,1552800452,87,60.3,54.33,23.18,7.63
519,Corralillo,8,CU,1552800453,100,22.98,-80.59,67.73,5.95
520,Khash,0,IR,1552800453,57,28.22,61.21,62.69,4.5
521,Georgiyevka,88,RU,1552800453,94,52.25,40.45,33.17,8.86
522,Verkhoyansk,0,RU,1552800453,58,67.55,133.39,-2.66,3.71
523,Sokoni,76,CD,1552800453,97,-12.89,28.78,66.2,3.94
524,Rugby,75,US,1552799700,100,48.37,-100.0,26.6,13.87
525,Ekibastuz,0,KZ,1552800453,100,51.72,75.32,20.84,9.42
526,Nouadhibou,0,MR,1552795200,60,20.93,-17.03,68.0,13.87
527,The Valley,20,AI,1552799735,73,18.22,-63.06,77.0,8.05
528,Ganzhou,100,CN,1552800454,99,25.86,114.93,58.1,3.49
529,Ust-Nera,8,RU,1552800454,63,64.57,143.24,-2.57,2.59
530,Lunca Cernii de Jos,0,RO,1552800307,88,45.63,22.62,43.0,1.01
531,San Marcos,20,GT,1552797600,94,14.97,-91.79,77.0,1.92
532,Batemans Bay,44,AU,1552800259,78,-35.71,150.18,71.01,5.01
533,Moranbah,48,AU,1552800456,79,-22.0,148.04,82.67,3.6
